{"categories":[{"category_name":"Restaurants","category_map_marker":{"ID":118,"id":118,"title":"map-marker","filename":"map-marker.png","url":"http:\/\/staging.riverwatch.mtcdev.com\/wp-content\/uploads\/2016\/08\/map-marker.png","alt":"","author":"1","description":"","caption":"","name":"map-marker","date":"2016-08-10 02:22:47","modified":"2016-08-10 02:22:47","mime_type":"image\/png","type":"image","icon":"http:\/\/staging.riverwatch.mtcdev.com\/wp-includes\/images\/media\/default.png","width":14,"height":14,"sizes":{"thumbnail":"http:\/\/staging.riverwatch.mtcdev.com\/wp-content\/uploads\/2016\/08\/map-marker.png","thumbnail-width":14,"thumbnail-height":14,"medium":"http:\/\/staging.riverwatch.mtcdev.com\/wp-content\/uploads\/2016\/08\/map-marker.png","medium-width":14,"medium-height":14,"medium_large":"http:\/\/staging.riverwatch.mtcdev.com\/wp-content\/uploads\/2016\/08\/map-marker.png","medium_large-width":14,"medium_large-height":14,"large":"http:\/\/staging.riverwatch.mtcdev.com\/wp-content\/uploads\/2016\/08\/map-marker.png","large-width":14,"large-height":14,"gallery-thumb":"http:\/\/staging.riverwatch.mtcdev.com\/wp-content\/uploads\/2016\/08\/map-marker.png","gallery-thumb-width":14,"gallery-thumb-height":14,"header-nineteen":"http:\/\/staging.riverwatch.mtcdev.com\/wp-content\/uploads\/2016\/08\/map-marker.png","header-nineteen-width":14,"header-nineteen-height":14,"header-sixteen":"http:\/\/staging.riverwatch.mtcdev.com\/wp-content\/uploads\/2016\/08\/map-marker.png","header-sixteen-width":14,"header-sixteen-height":14,"header-fourteen":"http:\/\/staging.riverwatch.mtcdev.com\/wp-content\/uploads\/2016\/08\/map-marker.png","header-fourteen-width":14,"header-fourteen-height":14,"header-twelve":"http:\/\/staging.riverwatch.mtcdev.com\/wp-content\/uploads\/2016\/08\/map-marker.png","header-twelve-width":14,"header-twelve-height":14,"header-ten":"http:\/\/staging.riverwatch.mtcdev.com\/wp-content\/uploads\/2016\/08\/map-marker.png","header-ten-width":14,"header-ten-height":14,"header-tablet":"http:\/\/staging.riverwatch.mtcdev.com\/wp-content\/uploads\/2016\/08\/map-marker.png","header-tablet-width":14,"header-tablet-height":14}},"pois":[{"name":"Catherine Lombardi Restaurant","address":"3 Livingston Ave","city":"New Brunswick","state":"NJ","zip":"08901","latitude":"40.493785","longitude":"-74.443861"},{"name":"The Frog and The Peach","address":"29 Dennis St","city":"New Brunswick","state":"NJ","zip":"08901","latitude":"40.494979","longitude":"-74.440934"},{"name":"Delta's","address":"19 Dennis St","city":"New Brunswick","state":"NJ","zip":"08901","latitude":"40.494686","longitude":"-74.440645"},{"name":"Catherine Lombardi Restaurant","address":"3 Livingston Ave","city":"New Brunswick,","state":"NJ","zip":"08901","latitude":"40.493794,","longitude":"-74.443862"},{"name":"Hotoke","address":"350 George St","city":"New Brunswick,","state":"NJ","zip":"08901","latitude":"40.494508,","longitude":"-74.444097"},{"name":"Stage Left","address":"5 Livingston Ave","city":"New Brunswick","state":"NJ","zip":"08901","latitude":"40.493733,","longitude":"-74.443948"},{"name":"Clydz","address":"55 Paterson St","city":"New Brunswick","state":"NJ","zip":"08901","latitude":"40.495133","longitude":"-74.445514"},{"name":"Destination Dogs","address":"101 Paterson St","city":"New Brunswick","state":"NJ","zip":"08901","latitude":"40.494744","longitude":"-74.448189"},{"name":"Harvest Moon Brewery & Caf\u00e9","address":"392 George St","city":"New Brunswick","state":"NJ","zip":"08901","latitude":"40.496121","longitude":"-74.444389"},{"name":"Old Man Rafferty's","address":"106 Albany St","city":"New Brunswick","state":"NJ","zip":"08901","latitude":"40.496491","longitude":"-74.443813"},{"name":"Glo","address":"367 George St","city":"New Brunswick","state":"NJ","zip":"08901","latitude":"40.507055","longitude":"-74.458276"},{"name":"Harvest Moon Brewery & Caf\u00e9","address":"392 George St","city":"New Brunswick","state":"NJ","zip":"08901","latitude":"40.496145","longitude":"-74.444367"},{"name":"Old Man Rafferty's","address":"106 Albany St","city":"New Brunswick","state":"NJ","zip":"08901","latitude":"40.496475","longitude":"-74.443823"},{"name":"Glo","address":"367 George St","city":"New Brunswick","state":"NJ","zip":"08901","latitude":"40.495321","longitude":"-74.443752"},{"name":"Perle","address":"13 Paterson St","city":"New Brunswick","state":"NJ","zip":"08901","latitude":"40.495400","longitude":"-74.443626"},{"name":"La Bagel","address":"377 George St","city":"New Brunswick","state":"NJ","zip":"08901","latitude":"40.495659","longitude":"-74.443864"},{"name":"World of Beer","address":"335 George St","city":"New Brunswick","state":"NJ","zip":"08901","latitude":"40.494120","longitude":"-74.443270"},{"name":"Esquina Latina Restaurant & Lounge","address":"25 Liberty St","city":"New Brunswick","state":"NJ","zip":"08901","latitude":"40.493901","longitude":"-74.442996"},{"name":"Evelyn's Restaurant","address":"45 Easton Ave","city":"New Brunswick","state":"NJ","zip":"08901","latitude":"40.497974","longitude":"-74.448754"},{"name":"The Golden Rail Irish Pub","address":"66 Easton Ave","city":"New Brunswick","state":"NJ","zip":"08901","latitude":"40.497996","longitude":"-74.449653"},{"name":"Due Mari","address":"78 Albany St","city":"New Brunswick","state":"NJ","zip":"08901","latitude":"40.496697","longitude":"-74.442621"},{"name":"Old Bay Resturant","address":"61 Church St","city":"New Brunswick","state":"NJ","zip":"08901","latitude":"40.496327","longitude":"-74.442537"},{"name":"Caffebene","address":"356 George St","city":"New Brunswick","state":"NJ","zip":"08901","latitude":"40.494788","longitude":"-74.443964"},{"name":"Steakhouse 85","address":"85 Church St","city":"New Brunswick","state":"NJ","zip":"08901","latitude":"40.496329","longitude":"-74.443351"}]},{"category_name":"Grocery\/Convenience","category_map_marker":{"ID":118,"id":118,"title":"map-marker","filename":"map-marker.png","url":"http:\/\/staging.riverwatch.mtcdev.com\/wp-content\/uploads\/2016\/08\/map-marker.png","alt":"","author":"1","description":"","caption":"","name":"map-marker","date":"2016-08-10 02:22:47","modified":"2016-08-10 02:22:47","mime_type":"image\/png","type":"image","icon":"http:\/\/staging.riverwatch.mtcdev.com\/wp-includes\/images\/media\/default.png","width":14,"height":14,"sizes":{"thumbnail":"http:\/\/staging.riverwatch.mtcdev.com\/wp-content\/uploads\/2016\/08\/map-marker.png","thumbnail-width":14,"thumbnail-height":14,"medium":"http:\/\/staging.riverwatch.mtcdev.com\/wp-content\/uploads\/2016\/08\/map-marker.png","medium-width":14,"medium-height":14,"medium_large":"http:\/\/staging.riverwatch.mtcdev.com\/wp-content\/uploads\/2016\/08\/map-marker.png","medium_large-width":14,"medium_large-height":14,"large":"http:\/\/staging.riverwatch.mtcdev.com\/wp-content\/uploads\/2016\/08\/map-marker.png","large-width":14,"large-height":14,"gallery-thumb":"http:\/\/staging.riverwatch.mtcdev.com\/wp-content\/uploads\/2016\/08\/map-marker.png","gallery-thumb-width":14,"gallery-thumb-height":14,"header-nineteen":"http:\/\/staging.riverwatch.mtcdev.com\/wp-content\/uploads\/2016\/08\/map-marker.png","header-nineteen-width":14,"header-nineteen-height":14,"header-sixteen":"http:\/\/staging.riverwatch.mtcdev.com\/wp-content\/uploads\/2016\/08\/map-marker.png","header-sixteen-width":14,"header-sixteen-height":14,"header-fourteen":"http:\/\/staging.riverwatch.mtcdev.com\/wp-content\/uploads\/2016\/08\/map-marker.png","header-fourteen-width":14,"header-fourteen-height":14,"header-twelve":"http:\/\/staging.riverwatch.mtcdev.com\/wp-content\/uploads\/2016\/08\/map-marker.png","header-twelve-width":14,"header-twelve-height":14,"header-ten":"http:\/\/staging.riverwatch.mtcdev.com\/wp-content\/uploads\/2016\/08\/map-marker.png","header-ten-width":14,"header-ten-height":14,"header-tablet":"http:\/\/staging.riverwatch.mtcdev.com\/wp-content\/uploads\/2016\/08\/map-marker.png","header-tablet-width":14,"header-tablet-height":14}},"pois":[{"name":"TD Bank","address":"70 Bayard St","city":"New Brunswick","state":"NJ","zip":"08901","latitude":"40.493910","longitude":"-74.445140"},{"name":"US Post Office","address":"86 Bayard St","city":"New Brunswick","state":"NJ","zip":"08901","latitude":"40.494028","longitude":"-74.446554"},{"name":"Affinity Federal Credit Union","address":"346 George St","city":"New Brunswick","state":"NJ","zip":"08901","latitude":"40.494232","longitude":"-74.444119"},{"name":"Brunswick Bank & Trust","address":"439 Livingston Ave","city":"New Brunswick","state":"NJ","zip":"08901","latitude":"40.494672","longitude":"-74.444144"},{"name":"7-Eleven","address":"358 George St","city":"New Brunswick","state":"NJ","zip":"08901","latitude":"40.494864","longitude":"-74.444225"},{"name":"PNC Bank","address":"112 Somerset St","city":"New Brunswick","state":"NJ","zip":"08901","latitude":"40.497425,","longitude":"-74.447245"},{"name":"Bravo Supermarket","address":"275 George St","city":"New Brunswick","state":"NJ","zip":"08901","latitude":"40.491271","longitude":"-74.442352"},{"name":"George Street Co-op Natural Foods","address":"89 Morris St","city":"New Brunswick","state":"NJ","zip":"08901","latitude":"40.491771","longitude":"-74.445010"},{"name":"Key Food","address":"95 Paterson St","city":"New Brunswick","state":"NJ","zip":"08901","latitude":"40.494642","longitude":"-74.447547"}]},{"category_name":"Parks","category_map_marker":{"ID":118,"id":118,"title":"map-marker","filename":"map-marker.png","url":"http:\/\/staging.riverwatch.mtcdev.com\/wp-content\/uploads\/2016\/08\/map-marker.png","alt":"","author":"1","description":"","caption":"","name":"map-marker","date":"2016-08-10 02:22:47","modified":"2016-08-10 02:22:47","mime_type":"image\/png","type":"image","icon":"http:\/\/staging.riverwatch.mtcdev.com\/wp-includes\/images\/media\/default.png","width":14,"height":14,"sizes":{"thumbnail":"http:\/\/staging.riverwatch.mtcdev.com\/wp-content\/uploads\/2016\/08\/map-marker.png","thumbnail-width":14,"thumbnail-height":14,"medium":"http:\/\/staging.riverwatch.mtcdev.com\/wp-content\/uploads\/2016\/08\/map-marker.png","medium-width":14,"medium-height":14,"medium_large":"http:\/\/staging.riverwatch.mtcdev.com\/wp-content\/uploads\/2016\/08\/map-marker.png","medium_large-width":14,"medium_large-height":14,"large":"http:\/\/staging.riverwatch.mtcdev.com\/wp-content\/uploads\/2016\/08\/map-marker.png","large-width":14,"large-height":14,"gallery-thumb":"http:\/\/staging.riverwatch.mtcdev.com\/wp-content\/uploads\/2016\/08\/map-marker.png","gallery-thumb-width":14,"gallery-thumb-height":14,"header-nineteen":"http:\/\/staging.riverwatch.mtcdev.com\/wp-content\/uploads\/2016\/08\/map-marker.png","header-nineteen-width":14,"header-nineteen-height":14,"header-sixteen":"http:\/\/staging.riverwatch.mtcdev.com\/wp-content\/uploads\/2016\/08\/map-marker.png","header-sixteen-width":14,"header-sixteen-height":14,"header-fourteen":"http:\/\/staging.riverwatch.mtcdev.com\/wp-content\/uploads\/2016\/08\/map-marker.png","header-fourteen-width":14,"header-fourteen-height":14,"header-twelve":"http:\/\/staging.riverwatch.mtcdev.com\/wp-content\/uploads\/2016\/08\/map-marker.png","header-twelve-width":14,"header-twelve-height":14,"header-ten":"http:\/\/staging.riverwatch.mtcdev.com\/wp-content\/uploads\/2016\/08\/map-marker.png","header-ten-width":14,"header-ten-height":14,"header-tablet":"http:\/\/staging.riverwatch.mtcdev.com\/wp-content\/uploads\/2016\/08\/map-marker.png","header-tablet-width":14,"header-tablet-height":14}},"pois":[{"name":"Monument Square Park","address":"Livingston Ave & George St","city":"New Brunswick","state":"NJ","zip":"08901","latitude":"40.493677","longitude":"-74.443599"},{"name":"Elmer B. Boyd Park","address":"New Jersey 18 Service Rd & Commercial Ave","city":"New Brunswick","state":"NJ","zip":"08901","latitude":"40.489752","longitude":"-74.437035"},{"name":"Kossuth Park","address":"Harvey St","city":"New Brunswick","state":"NJ","zip":"08901","latitude":"40.494268,","longitude":"-74.453666"},{"name":"Kilmer Square Park","address":"Albany St & George St","city":"New Brunswick","state":"NJ","zip":"08901","latitude":"40.496648","longitude":"-74.444286"}]},{"category_name":"Schools","category_map_marker":{"ID":118,"id":118,"title":"map-marker","filename":"map-marker.png","url":"http:\/\/staging.riverwatch.mtcdev.com\/wp-content\/uploads\/2016\/08\/map-marker.png","alt":"","author":"1","description":"","caption":"","name":"map-marker","date":"2016-08-10 02:22:47","modified":"2016-08-10 02:22:47","mime_type":"image\/png","type":"image","icon":"http:\/\/staging.riverwatch.mtcdev.com\/wp-includes\/images\/media\/default.png","width":14,"height":14,"sizes":{"thumbnail":"http:\/\/staging.riverwatch.mtcdev.com\/wp-content\/uploads\/2016\/08\/map-marker.png","thumbnail-width":14,"thumbnail-height":14,"medium":"http:\/\/staging.riverwatch.mtcdev.com\/wp-content\/uploads\/2016\/08\/map-marker.png","medium-width":14,"medium-height":14,"medium_large":"http:\/\/staging.riverwatch.mtcdev.com\/wp-content\/uploads\/2016\/08\/map-marker.png","medium_large-width":14,"medium_large-height":14,"large":"http:\/\/staging.riverwatch.mtcdev.com\/wp-content\/uploads\/2016\/08\/map-marker.png","large-width":14,"large-height":14,"gallery-thumb":"http:\/\/staging.riverwatch.mtcdev.com\/wp-content\/uploads\/2016\/08\/map-marker.png","gallery-thumb-width":14,"gallery-thumb-height":14,"header-nineteen":"http:\/\/staging.riverwatch.mtcdev.com\/wp-content\/uploads\/2016\/08\/map-marker.png","header-nineteen-width":14,"header-nineteen-height":14,"header-sixteen":"http:\/\/staging.riverwatch.mtcdev.com\/wp-content\/uploads\/2016\/08\/map-marker.png","header-sixteen-width":14,"header-sixteen-height":14,"header-fourteen":"http:\/\/staging.riverwatch.mtcdev.com\/wp-content\/uploads\/2016\/08\/map-marker.png","header-fourteen-width":14,"header-fourteen-height":14,"header-twelve":"http:\/\/staging.riverwatch.mtcdev.com\/wp-content\/uploads\/2016\/08\/map-marker.png","header-twelve-width":14,"header-twelve-height":14,"header-ten":"http:\/\/staging.riverwatch.mtcdev.com\/wp-content\/uploads\/2016\/08\/map-marker.png","header-ten-width":14,"header-ten-height":14,"header-tablet":"http:\/\/staging.riverwatch.mtcdev.com\/wp-content\/uploads\/2016\/08\/map-marker.png","header-tablet-width":14,"header-tablet-height":14}},"pois":[{"name":"Rutgers State University","address":"85 Somerset St","city":"New Brunswick","state":"NJ","zip":"08901","latitude":"40.497829","longitude":"-74.446433"},{"name":"Lord Stirling Elementary School","address":"101 Redmond St","city":"New Brunswick","state":"NJ","zip":"08901","latitude":"40.487737","longitude":"-74.441016"},{"name":"Woodrow Wilson Elementary School","address":"133 Tunison Rd","city":"New Brunswick","state":"NJ","zip":"08901","latitude":"40.485343","longitude":"-74.406097"},{"name":"New Brunswick High School","address":"1000 Somerset St","city":"New Brunswick","state":"NJ","zip":"08901","latitude":"40.480725","longitude":"-74.481703"}]},{"category_name":"Entertainment","category_map_marker":{"ID":118,"id":118,"title":"map-marker","filename":"map-marker.png","url":"http:\/\/staging.riverwatch.mtcdev.com\/wp-content\/uploads\/2016\/08\/map-marker.png","alt":"","author":"1","description":"","caption":"","name":"map-marker","date":"2016-08-10 02:22:47","modified":"2016-08-10 02:22:47","mime_type":"image\/png","type":"image","icon":"http:\/\/staging.riverwatch.mtcdev.com\/wp-includes\/images\/media\/default.png","width":14,"height":14,"sizes":{"thumbnail":"http:\/\/staging.riverwatch.mtcdev.com\/wp-content\/uploads\/2016\/08\/map-marker.png","thumbnail-width":14,"thumbnail-height":14,"medium":"http:\/\/staging.riverwatch.mtcdev.com\/wp-content\/uploads\/2016\/08\/map-marker.png","medium-width":14,"medium-height":14,"medium_large":"http:\/\/staging.riverwatch.mtcdev.com\/wp-content\/uploads\/2016\/08\/map-marker.png","medium_large-width":14,"medium_large-height":14,"large":"http:\/\/staging.riverwatch.mtcdev.com\/wp-content\/uploads\/2016\/08\/map-marker.png","large-width":14,"large-height":14,"gallery-thumb":"http:\/\/staging.riverwatch.mtcdev.com\/wp-content\/uploads\/2016\/08\/map-marker.png","gallery-thumb-width":14,"gallery-thumb-height":14,"header-nineteen":"http:\/\/staging.riverwatch.mtcdev.com\/wp-content\/uploads\/2016\/08\/map-marker.png","header-nineteen-width":14,"header-nineteen-height":14,"header-sixteen":"http:\/\/staging.riverwatch.mtcdev.com\/wp-content\/uploads\/2016\/08\/map-marker.png","header-sixteen-width":14,"header-sixteen-height":14,"header-fourteen":"http:\/\/staging.riverwatch.mtcdev.com\/wp-content\/uploads\/2016\/08\/map-marker.png","header-fourteen-width":14,"header-fourteen-height":14,"header-twelve":"http:\/\/staging.riverwatch.mtcdev.com\/wp-content\/uploads\/2016\/08\/map-marker.png","header-twelve-width":14,"header-twelve-height":14,"header-ten":"http:\/\/staging.riverwatch.mtcdev.com\/wp-content\/uploads\/2016\/08\/map-marker.png","header-ten-width":14,"header-ten-height":14,"header-tablet":"http:\/\/staging.riverwatch.mtcdev.com\/wp-content\/uploads\/2016\/08\/map-marker.png","header-tablet-width":14,"header-tablet-height":14}},"pois":[{"name":"Stress Factory Comedy Club","address":"90 Church St","city":"New Brunswick","state":"NJ","zip":"08901","latitude":"40.495679","longitude":"-74.443254"},{"name":"George Street Playhouse","address":"9 Livingston Ave","city":"New Brunswick","state":"NJ","zip":"08901","latitude":"40.493544","longitude":"-74.444451"},{"name":"State Theatre","address":"15 Livingston Ave","city":"New Brunswick","state":"NJ","zip":"08901","latitude":"40.493374","longitude":"-74.444846"},{"name":"Corssroads Theatre Company","address":"7 Livingston Ave","city":"New Brunswick","state":"NJ","zip":"08901","latitude":"40.493702","longitude":"-74.444205"}]},{"category_name":"Retail","category_map_marker":{"ID":118,"id":118,"title":"map-marker","filename":"map-marker.png","url":"http:\/\/staging.riverwatch.mtcdev.com\/wp-content\/uploads\/2016\/08\/map-marker.png","alt":"","author":"1","description":"","caption":"","name":"map-marker","date":"2016-08-10 02:22:47","modified":"2016-08-10 02:22:47","mime_type":"image\/png","type":"image","icon":"http:\/\/staging.riverwatch.mtcdev.com\/wp-includes\/images\/media\/default.png","width":14,"height":14,"sizes":{"thumbnail":"http:\/\/staging.riverwatch.mtcdev.com\/wp-content\/uploads\/2016\/08\/map-marker.png","thumbnail-width":14,"thumbnail-height":14,"medium":"http:\/\/staging.riverwatch.mtcdev.com\/wp-content\/uploads\/2016\/08\/map-marker.png","medium-width":14,"medium-height":14,"medium_large":"http:\/\/staging.riverwatch.mtcdev.com\/wp-content\/uploads\/2016\/08\/map-marker.png","medium_large-width":14,"medium_large-height":14,"large":"http:\/\/staging.riverwatch.mtcdev.com\/wp-content\/uploads\/2016\/08\/map-marker.png","large-width":14,"large-height":14,"gallery-thumb":"http:\/\/staging.riverwatch.mtcdev.com\/wp-content\/uploads\/2016\/08\/map-marker.png","gallery-thumb-width":14,"gallery-thumb-height":14,"header-nineteen":"http:\/\/staging.riverwatch.mtcdev.com\/wp-content\/uploads\/2016\/08\/map-marker.png","header-nineteen-width":14,"header-nineteen-height":14,"header-sixteen":"http:\/\/staging.riverwatch.mtcdev.com\/wp-content\/uploads\/2016\/08\/map-marker.png","header-sixteen-width":14,"header-sixteen-height":14,"header-fourteen":"http:\/\/staging.riverwatch.mtcdev.com\/wp-content\/uploads\/2016\/08\/map-marker.png","header-fourteen-width":14,"header-fourteen-height":14,"header-twelve":"http:\/\/staging.riverwatch.mtcdev.com\/wp-content\/uploads\/2016\/08\/map-marker.png","header-twelve-width":14,"header-twelve-height":14,"header-ten":"http:\/\/staging.riverwatch.mtcdev.com\/wp-content\/uploads\/2016\/08\/map-marker.png","header-ten-width":14,"header-ten-height":14,"header-tablet":"http:\/\/staging.riverwatch.mtcdev.com\/wp-content\/uploads\/2016\/08\/map-marker.png","header-tablet-width":14,"header-tablet-height":14}},"pois":[{"name":"The Spa at the Heldrich","address":"10 Livingston Ave","city":"New Brunswick","state":"NJ","zip":"08901","latitude":"40.492832","longitude":"-74.444090"},{"name":"A Cut Above Salon","address":"335 George St #1","city":"New Brunswick","state":"NJ","zip":"08901","latitude":"40.494123","longitude":"-74.443172"},{"name":"GNC","address":"335 George St","city":"New Brunswick","state":"NJ","zip":"08901","latitude":"40.494128","longitude":"-74.443291"}]},{"category_name":"Transportation","category_map_marker":{"ID":118,"id":118,"title":"map-marker","filename":"map-marker.png","url":"http:\/\/staging.riverwatch.mtcdev.com\/wp-content\/uploads\/2016\/08\/map-marker.png","alt":"","author":"1","description":"","caption":"","name":"map-marker","date":"2016-08-10 02:22:47","modified":"2016-08-10 02:22:47","mime_type":"image\/png","type":"image","icon":"http:\/\/staging.riverwatch.mtcdev.com\/wp-includes\/images\/media\/default.png","width":14,"height":14,"sizes":{"thumbnail":"http:\/\/staging.riverwatch.mtcdev.com\/wp-content\/uploads\/2016\/08\/map-marker.png","thumbnail-width":14,"thumbnail-height":14,"medium":"http:\/\/staging.riverwatch.mtcdev.com\/wp-content\/uploads\/2016\/08\/map-marker.png","medium-width":14,"medium-height":14,"medium_large":"http:\/\/staging.riverwatch.mtcdev.com\/wp-content\/uploads\/2016\/08\/map-marker.png","medium_large-width":14,"medium_large-height":14,"large":"http:\/\/staging.riverwatch.mtcdev.com\/wp-content\/uploads\/2016\/08\/map-marker.png","large-width":14,"large-height":14,"gallery-thumb":"http:\/\/staging.riverwatch.mtcdev.com\/wp-content\/uploads\/2016\/08\/map-marker.png","gallery-thumb-width":14,"gallery-thumb-height":14,"header-nineteen":"http:\/\/staging.riverwatch.mtcdev.com\/wp-content\/uploads\/2016\/08\/map-marker.png","header-nineteen-width":14,"header-nineteen-height":14,"header-sixteen":"http:\/\/staging.riverwatch.mtcdev.com\/wp-content\/uploads\/2016\/08\/map-marker.png","header-sixteen-width":14,"header-sixteen-height":14,"header-fourteen":"http:\/\/staging.riverwatch.mtcdev.com\/wp-content\/uploads\/2016\/08\/map-marker.png","header-fourteen-width":14,"header-fourteen-height":14,"header-twelve":"http:\/\/staging.riverwatch.mtcdev.com\/wp-content\/uploads\/2016\/08\/map-marker.png","header-twelve-width":14,"header-twelve-height":14,"header-ten":"http:\/\/staging.riverwatch.mtcdev.com\/wp-content\/uploads\/2016\/08\/map-marker.png","header-ten-width":14,"header-ten-height":14,"header-tablet":"http:\/\/staging.riverwatch.mtcdev.com\/wp-content\/uploads\/2016\/08\/map-marker.png","header-tablet-width":14,"header-tablet-height":14}},"pois":[{"name":"New Brunswick Station","address":"French St & Albany St","city":"New Brunswick","state":"NJ","zip":"08901","latitude":"40.496038","longitude":"-74.446747"}]}],"property":{"property_name":null,"address":"5 Dennis Street","city":"New Brunswick","state":"NJ","zip":"08901","latitude":"40.494176","longitude":"-74.440813","property_map_marker":{"ID":98,"id":98,"title":"property-map-marker","filename":"property-map-marker.gif","url":"http:\/\/staging.riverwatch.mtcdev.com\/wp-content\/uploads\/2016\/08\/property-map-marker.gif","alt":"","author":"1","description":"","caption":"","name":"property-map-marker","date":"2016-08-10 01:30:26","modified":"2016-08-10 01:30:26","mime_type":"image\/gif","type":"image","icon":"http:\/\/staging.riverwatch.mtcdev.com\/wp-includes\/images\/media\/default.png","width":51,"height":75,"sizes":{"thumbnail":"http:\/\/staging.riverwatch.mtcdev.com\/wp-content\/uploads\/2016\/08\/property-map-marker.gif","thumbnail-width":51,"thumbnail-height":75,"medium":"http:\/\/staging.riverwatch.mtcdev.com\/wp-content\/uploads\/2016\/08\/property-map-marker.gif","medium-width":51,"medium-height":75,"medium_large":"http:\/\/staging.riverwatch.mtcdev.com\/wp-content\/uploads\/2016\/08\/property-map-marker.gif","medium_large-width":51,"medium_large-height":75,"large":"http:\/\/staging.riverwatch.mtcdev.com\/wp-content\/uploads\/2016\/08\/property-map-marker.gif","large-width":51,"large-height":75,"gallery-thumb":"http:\/\/staging.riverwatch.mtcdev.com\/wp-content\/uploads\/2016\/08\/property-map-marker.gif","gallery-thumb-width":51,"gallery-thumb-height":75,"header-nineteen":"http:\/\/staging.riverwatch.mtcdev.com\/wp-content\/uploads\/2016\/08\/property-map-marker.gif","header-nineteen-width":51,"header-nineteen-height":75,"header-sixteen":"http:\/\/staging.riverwatch.mtcdev.com\/wp-content\/uploads\/2016\/08\/property-map-marker.gif","header-sixteen-width":51,"header-sixteen-height":75,"header-fourteen":"http:\/\/staging.riverwatch.mtcdev.com\/wp-content\/uploads\/2016\/08\/property-map-marker.gif","header-fourteen-width":51,"header-fourteen-height":75,"header-twelve":"http:\/\/staging.riverwatch.mtcdev.com\/wp-content\/uploads\/2016\/08\/property-map-marker.gif","header-twelve-width":51,"header-twelve-height":75,"header-ten":"http:\/\/staging.riverwatch.mtcdev.com\/wp-content\/uploads\/2016\/08\/property-map-marker.gif","header-ten-width":51,"header-ten-height":75,"header-tablet":"http:\/\/staging.riverwatch.mtcdev.com\/wp-content\/uploads\/2016\/08\/property-map-marker.gif","header-tablet-width":51,"header-tablet-height":75}}}}